[
    {
        "customerId": "CUST-001",
        "customerName": "Aksoy Ticaret A.Ş.",
        "city": "İstanbul",
        "lat": 41.0082,
        "lng": 28.9784,
        "salesOrderCount": 42,
        "salesAmount": 412500,
        "lastOrderDate": "2025-11-28T14:32:00Z",
        "phone": "+90-532-111-0101"
    },
    {
        "customerId": "CUST-002",
        "customerName": "Ege Ev Gereçleri",
        "city": "İzmir",
        "lat": 38.4237,
        "lng": 27.1428,
        "salesOrderCount": 18,
        "salesAmount": 126800,
        "lastOrderDate": "2025-10-21T09:15:00Z",
        "phone": "+90-532-222-0202"
    },
    {
        "customerId": "CUST-003",
        "customerName": "Başkent Mobilya",
        "city": "Ankara",
        "lat": 39.9208,
        "lng": 32.8541,
        "salesOrderCount": 34,
        "salesAmount": 289000,
        "lastOrderDate": "2025-11-02T11:50:00Z",
        "phone": "+90-533-333-0303"
    },
    {
        "customerId": "CUST-004",
        "customerName": "Bursa Evim",
        "city": "Bursa",
        "lat": 40.1950,
        "lng": 29.0600,
        "salesOrderCount": 12,
        "salesAmount": 91000,
        "lastOrderDate": "2025-09-12T16:05:00Z",
        "phone": "+90-534-444-0404"
    },
    {
        "customerId": "CUST-005",
        "customerName": "Antalya Konfor",
        "city": "Antalya",
        "lat": 36.8969,
        "lng": 30.7133,
        "salesOrderCount": 27,
        "salesAmount": 198750,
        "lastOrderDate": "2025-11-15T08:20:00Z",
        "phone": "+90-532-555-0505"
    },
    {
        "customerId": "CUST-006",
        "customerName": "Adana Ev Aksesuar",
        "city": "Adana",
        "lat": 37.0000,
        "lng": 35.3213,
        "salesOrderCount": 9,
        "salesAmount": 45200,
        "lastOrderDate": "2025-08-05T13:40:00Z",
        "phone": "+90-533-666-0606"
    },
    {
        "customerId": "CUST-007",
        "customerName": "Konya Doğa",
        "city": "Konya",
        "lat": 37.8714,
        "lng": 32.4846,
        "salesOrderCount": 15,
        "salesAmount": 98000,
        "lastOrderDate": "2025-10-30T10:10:00Z",
        "phone": "+90-534-777-0707"
    },
    {
        "customerId": "CUST-008",
        "customerName": "Antep Ev",
        "city": "Gaziantep",
        "lat": 37.0662,
        "lng": 37.3833,
        "salesOrderCount": 21,
        "salesAmount": 132500,
        "lastOrderDate": "2025-11-20T12:00:00Z",
        "phone": "+90-532-888-0808"
    },
    {
        "customerId": "CUST-009",
        "customerName": "Mersin Mağaza",
        "city": "Mersin",
        "lat": 36.8121,
        "lng": 34.6415,
        "salesOrderCount": 7,
        "salesAmount": 38500,
        "lastOrderDate": "2025-07-18T09:00:00Z",
        "phone": "+90-533-999-0909"
    },
    {
        "customerId": "CUST-010",
        "customerName": "Kayseri Ev",
        "city": "Kayseri",
        "lat": 38.7312,
        "lng": 35.4787,
        "salesOrderCount": 11,
        "salesAmount": 64500,
        "lastOrderDate": "2025-11-01T15:25:00Z",
        "phone": "+90-534-101-1010"
    },
    {
        "customerId": "CUST-011",
        "customerName": "Samsun Mobilya",
        "city": "Samsun",
        "lat": 41.2867,
        "lng": 36.3300,
        "salesOrderCount": 5,
        "salesAmount": 28000,
        "lastOrderDate": "2025-06-22T14:00:00Z",
        "phone": "+90-532-121-1212"
    },
    {
        "customerId": "CUST-012",
        "customerName": "Sakarya Ev",
        "city": "Sakarya",
        "lat": 40.7569,
        "lng": 30.3781,
        "salesOrderCount": 8,
        "salesAmount": 49000,
        "lastOrderDate": "2025-10-12T10:45:00Z",
        "phone": "+90-533-131-1313"
    },
    {
        "customerId": "CUST-013",
        "customerName": "Eskişehir Tasarım",
        "city": "Eskişehir",
        "lat": 39.7667,
        "lng": 30.5256,
        "salesOrderCount": 14,
        "salesAmount": 82000,
        "lastOrderDate": "2025-11-10T11:11:00Z",
        "phone": "+90-534-141-1414"
    },
    {
        "customerId": "CUST-014",
        "customerName": "Trabzon Evcil",
        "city": "Trabzon",
        "lat": 41.0027,
        "lng": 39.7168,
        "salesOrderCount": 6,
        "salesAmount": 36000,
        "lastOrderDate": "2025-09-02T09:30:00Z",
        "phone": "+90-532-151-1515"
    },
    {
        "customerId": "CUST-015",
        "customerName": "Diyarbakır Market",
        "city": "Diyarbakır",
        "lat": 37.9100,
        "lng": 40.2400,
        "salesOrderCount": 19,
        "salesAmount": 145000,
        "lastOrderDate": "2025-11-24T17:05:00Z",
        "phone": "+90-533-161-1616"
    },
    {
        "customerId": "CUST-016",
        "customerName": "Van Ev",
        "city": "Van",
        "lat": 38.5012,
        "lng": 43.3723,
        "salesOrderCount": 4,
        "salesAmount": 22000,
        "lastOrderDate": "2025-05-30T08:00:00Z",
        "phone": "+90-534-171-1717"
    },
    {
        "customerId": "CUST-017",
        "customerName": "Sivas Dekor",
        "city": "Sivas",
        "lat": 39.7485,
        "lng": 37.0155,
        "salesOrderCount": 3,
        "salesAmount": 15000,
        "lastOrderDate": "2025-04-18T13:20:00Z",
        "phone": "+90-532-181-1818"
    },
    {
        "customerId": "CUST-018",
        "customerName": "Balıkesir Ev",
        "city": "Balıkesir",
        "lat": 39.6484,
        "lng": 27.8826,
        "salesOrderCount": 10,
        "salesAmount": 59000,
        "lastOrderDate": "2025-10-05T12:12:00Z",
        "phone": "+90-533-191-1919"
    },
    {
        "customerId": "CUST-019",
        "customerName": "Çanakkale Tasarım",
        "city": "Çanakkale",
        "lat": 40.1553,
        "lng": 26.4142,
        "salesOrderCount": 2,
        "salesAmount": 12000,
        "lastOrderDate": "2025-03-21T09:00:00Z",
        "phone": "+90-534-201-2020"
    },
    {
        "customerId": "CUST-020",
        "customerName": "Uşak Home",
        "city": "Uşak",
        "lat": 38.6770,
        "lng": 29.4052,
        "salesOrderCount": 1,
        "salesAmount": 6500,
        "lastOrderDate": "2025-02-11T10:10:00Z",
        "phone": "+90-532-211-2121"
    },
    {
        "customerId": "CUST-021",
        "customerName": "Malatya Ev Gereçleri",
        "city": "Malatya",
        "lat": 38.3552,
        "lng": 38.3095,
        "salesOrderCount": 13,
        "salesAmount": 76000,
        "lastOrderDate": "2025-11-07T14:40:00Z",
        "phone": "+90-533-221-2222"
    },
    {
        "customerId": "CUST-022",
        "customerName": "Hatay Mağazacılık",
        "city": "Hatay",
        "lat": 36.2021,
        "lng": 36.1619,
        "salesOrderCount": 16,
        "salesAmount": 98000,
        "lastOrderDate": "2025-09-28T16:55:00Z",
        "phone": "+90-534-231-2323"
    },
    {
        "customerId": "CUST-023",
        "customerName": "Karadeniz Ev",
        "city": "Zonguldak",
        "lat": 41.4564,
        "lng": 31.7987,
        "salesOrderCount": 3,
        "salesAmount": 18000,
        "lastOrderDate": "2025-06-02T11:11:00Z",
        "phone": "+90-532-241-2424"
    },
    {
        "customerId": "CUST-024",
        "customerName": "Aydın Mobilya",
        "city": "Aydın",
        "lat": 37.7746,
        "lng": 27.4034,
        "salesOrderCount": 6,
        "salesAmount": 35500,
        "lastOrderDate": "2025-08-29T09:45:00Z",
        "phone": "+90-533-251-2525"
    },
    {
        "customerId": "CUST-025",
        "customerName": "Kocaeli Ev Dekor",
        "city": "Kocaeli",
        "lat": 40.7667,
        "lng": 29.9169,
        "salesOrderCount": 20,
        "salesAmount": 142000,
        "lastOrderDate": "2025-11-18T10:30:00Z",
        "phone": "+90-534-261-2626"
    },
    {
        "customerId": "CUST-051",
        "customerName": "Sakarya Ev Tekstil",
        "city": "Sakarya",
        "lat": 40.7733,
        "lng": 30.3948,
        "salesOrderCount": 18,
        "salesAmount": 248700,
        "lastOrderDate": "2025-01-12T12:10:00Z",
        "phone": "+90-264-555-1001"
    },
    {
        "customerId": "CUST-052",
        "customerName": "Adapazarı Mobilya",
        "city": "Sakarya",
        "lat": 40.7848,
        "lng": 30.4033,
        "salesOrderCount": 31,
        "salesAmount": 392500,
        "lastOrderDate": "2025-02-05T15:42:00Z",
        "phone": "+90-264-555-1020"
    },
    {
        "customerId": "CUST-053",
        "customerName": "Serdivan Home Design",
        "city": "Sakarya",
        "lat": 40.7459,
        "lng": 30.3712,
        "salesOrderCount": 27,
        "salesAmount": 310850,
        "lastOrderDate": "2024-12-25T09:20:00Z",
        "phone": "+90-264-555-1033"
    },
    {
        "customerId": "CUST-054",
        "customerName": "Erenler Koltuk & Yatak",
        "city": "Sakarya",
        "lat": 40.7501,
        "lng": 30.4221,
        "salesOrderCount": 14,
        "salesAmount": 189500,
        "lastOrderDate": "2025-01-30T11:50:00Z",
        "phone": "+90-264-555-1290"
    },
    {
        "customerId": "CUST-055",
        "customerName": "Hendek Yatak Deposu",
        "city": "Sakarya",
        "lat": 40.7996,
        "lng": 30.7483,
        "salesOrderCount": 22,
        "salesAmount": 279900,
        "lastOrderDate": "2025-02-01T14:06:00Z",
        "phone": "+90-264-555-1982"
    }
]
